[
	{
		"IP_ID": "IP_000001",
		"Name": "The Leaning tower of Pisa",
		"Region": "Tuscany",
		"Latitude": "43.722874",
		"Longitude": "10.396576",
		"Description": "The Leaning Tower of Pisa (Italian: Torre pendente di Pisa) or simply the Tower of Pisa (Torre di Pisa [ˈtorre di ˈpiːza]) is the campanile",
		"Category": " or freestanding bell tower",
		"Picture": " of the cathedral of the Italian city of Pisa",
		"Rating (Google)": " known worldwide for its unintended tilt. The tower is situated behind the Pisa Cathedral and is the third oldest structure in the city's Cathedral Square (Piazza del Duomo)"
	},
	{
		"IP_ID": "IP_USA_UT_NAT_1",
		"Name": "Bryce Canyon National Park Sunrise Point",
		"Region": "Bryce Canyon National Park",
		"Latitude": "",
		"Longitude": "",
		"Description": "",
		"Category": "NAT",
		"Picture": "",
		"Rating (Google)": ""
	},
	{
		"IP_ID": "IP_USA_UT_NAT_2",
		"Name": "Navajo Loop Trail",
		"Region": "Bryce Canyon National Park",
		"Latitude": "",
		"Longitude": "",
		"Description": "",
		"Category": "NAT",
		"Picture": "",
		"Rating (Google)": ""
	},
	{
		"IP_ID": "IP_USA_UT_NAT_3",
		"Name": "General Sherman",
		"Region": "Bryce Canyon National Park",
		"Latitude": "",
		"Longitude": "",
		"Description": "",
		"Category": "NAT",
		"Picture": "",
		"Rating (Google)": ""
	},
	{
		"IP_ID": "IP_USA_CA_NAT_1",
		"Name": "Badwater Basin",
		"Region": "Death Valley",
		"Latitude": "",
		"Longitude": "",
		"Description": "",
		"Category": "NAT",
		"Picture": "",
		"Rating (Google)": ""
	},
	{
		"IP_ID": "IP_USA_CA_NAT_2",
		"Name": "Mesquite Flat Sand Dunes",
		"Region": "Death Valley",
		"Latitude": "",
		"Longitude": "",
		"Description": "",
		"Category": "NAT",
		"Picture": "",
		"Rating (Google)": ""
	},
	{
		"IP_ID": "IP_USA_CA_NAT_3",
		"Name": "Dante's View",
		"Region": "Death Valley",
		"Latitude": "",
		"Longitude": "",
		"Description": "",
		"Category": "NAT",
		"Picture": "",
		"Rating (Google)": ""
	},
	{
		"IP_ID": "IP_USA_AZ_NAT_1",
		"Name": "Havasu Falls",
		"Region": "Grand Canyon National Park",
		"Latitude": "",
		"Longitude": "",
		"Description": "",
		"Category": "NAT",
		"Picture": "",
		"Rating (Google)": ""
	},
	{
		"IP_ID": "IP_USA_AZ_NAT_2",
		"Name": "Mather Point",
		"Region": "Grand Canyon National Park",
		"Latitude": "",
		"Longitude": "",
		"Description": "",
		"Category": "NAT",
		"Picture": "",
		"Rating (Google)": ""
	},
	{
		"IP_ID": "IP_USA_AZ_NAT_3",
		"Name": "Desert View Watchtower",
		"Region": "Grand Canyon National Park",
		"Latitude": "",
		"Longitude": "",
		"Description": "",
		"Category": "NAT",
		"Picture": "",
		"Rating (Google)": ""
	},
	{
		"IP_ID": "IP_USA_NV_ENT_1",
		"Name": "Bellagio",
		"Region": "Las Vegas",
		"Latitude": "",
		"Longitude": "",
		"Description": "",
		"Category": "ENT",
		"Picture": "",
		"Rating (Google)": ""
	},
	{
		"IP_ID": "IP_USA_NV_ENT_2",
		"Name": "MGM Grand Las Vegas",
		"Region": "Las Vegas",
		"Latitude": "",
		"Longitude": "",
		"Description": "",
		"Category": "ENT",
		"Picture": "",
		"Rating (Google)": ""
	},
	{
		"IP_ID": "IP_USA_NV_ARCH_1",
		"Name": "Fremont Street Experience",
		"Region": "Las Vegas",
		"Latitude": "",
		"Longitude": "",
		"Description": "",
		"Category": "ARCH",
		"Picture": "",
		"Rating (Google)": ""
	},
	{
		"IP_ID": "IP_USA_NV_ENT_3",
		"Name": "Cirque du Soleil",
		"Region": "Las Vegas",
		"Latitude": "",
		"Longitude": "",
		"Description": "",
		"Category": "ENT",
		"Picture": "",
		"Rating (Google)": ""
	},
	{
		"IP_ID": "IP_USA_CA_ENT_1",
		"Name": "Universal Studios Hollywood",
		"Region": "Los Angeles",
		"Latitude": "",
		"Longitude": "",
		"Description": "",
		"Category": "ENT",
		"Picture": "",
		"Rating (Google)": ""
	},
	{
		"IP_ID": "IP_USA_CA_HIS_1",
		"Name": "Hollywood Walk of Fame",
		"Region": "Los Angeles",
		"Latitude": "",
		"Longitude": "",
		"Description": "",
		"Category": "HIS"
	},
	{
		"IP_ID": "IP_USA_CA_HIS_2",
		"Name": "Hollywood Sign",
		"Region": "Los Angeles",
		"Latitude": "",
		"Longitude": "",
		"Description": "",
		"Category": "HIS"
	},
	{
		"IP_ID": "IP_USA_CA_HIS_3",
		"Name": "Santa Monica Pier",
		"Region": "Los Angeles",
		"Latitude": "",
		"Longitude": "",
		"Description": "",
		"Category": "HIS"
	},
	{
		"IP_ID": "IP_USA_CA_HIS_4",
		"Name": "Venice Beach",
		"Region": "Los Angeles",
		"Latitude": "",
		"Longitude": "",
		"Description": "",
		"Category": "HIS"
	},
	{
		"IP_ID": "IP_USA_CA_ARCH_1",
		"Name": "Golden Gate Bridge",
		"Region": "San Francisco",
		"Latitude": "37.81992",
		"Longitude": "-122.47825",
		"Description": "",
		"Category": "ARCH"
	},
	{
		"IP_ID": "IP_USA_CA_NAT_4",
		"Name": "Fisherman's Wharf",
		"Region": "San Francisco",
		"Latitude": "37.80799",
		"Longitude": "-122.41774",
		"Description": "",
		"Category": "NAT"
	},
	{
		"IP_ID": "IP_USA_CA_NAT_5",
		"Name": "Alcatraz Island",
		"Region": "San Francisco",
		"Latitude": "37.82697",
		"Longitude": "-122.42295",
		"Description": "",
		"Category": "NAT"
	},
	{
		"IP_ID": "IP_USA_CA_HIS_5",
		"Name": "Muir Woods National Monument",
		"Region": "San Francisco",
		"Latitude": "37.89701",
		"Longitude": "-122.58111",
		"Description": "",
		"Category": "HIS"
	},
	{
		"IP_ID": "IP_USA_CA_NAT_6",
		"Name": "San Francisco Museum of Modern Art",
		"Region": "San Francisco",
		"Latitude": "37.78571",
		"Longitude": "-122.40105",
		"Description": "",
		"Category": "NAT"
	},
	{
		"IP_ID": "IP_USA_CA_NAT_7",
		"Name": "Exploratorium",
		"Region": "San Francisco",
		"Latitude": "37.80154",
		"Longitude": "-122.39748",
		"Description": "",
		"Category": "NAT"
	},
	{
		"IP_ID": "IP_USA_CA_HIS_6",
		"Name": "Pier 39",
		"Region": "San Francisco",
		"Latitude": "37.80867",
		"Longitude": "-122.40982",
		"Description": "",
		"Category": "HIS"
	},
	{
		"IP_ID": "IP_USA_CA_NAT_8",
		"Name": "Giant Forest",
		"Region": "Sequoia and Kings Canyon National Parks",
		"Latitude": "",
		"Longitude": "",
		"Description": "",
		"Category": "NAT"
	},
	{
		"IP_ID": "IP_USA_CA_NAT_9",
		"Name": "Moro Rock",
		"Region": "Sequoia and Kings Canyon National Parks",
		"Latitude": "",
		"Longitude": "",
		"Description": "",
		"Category": "NAT"
	},
	{
		"IP_ID": "IP_USA_CA_NAT_10",
		"Name": "Glacier Point",
		"Region": "Yosemite National Park",
		"Latitude": "37.72847",
		"Longitude": "-119.57318",
		"Description": "",
		"Category": "NAT"
	},
	{
		"IP_ID": "IP_USA_CA_NAT_11",
		"Name": "Yosemite valley",
		"Region": "Yosemite National Park",
		"Latitude": "37.7288",
		"Longitude": "-119.6095",
		"Description": "",
		"Category": "NAT"
	},
	{
		"IP_ID": "IP_USA_CA_NAT_12",
		"Name": "Yosemite Falls",
		"Region": "Yosemite National Park",
		"Latitude": "37.75659",
		"Longitude": "-119.5969",
		"Description": "",
		"Category": "NAT"
	},
	{
		"IP_ID": "IP_USA_CA_NAT_13",
		"Name": "Half Dome",
		"Region": "Yosemite National Park",
		"Latitude": "37.74591",
		"Longitude": "-119.53319",
		"Description": "",
		"Category": "NAT"
	},
	{
		"IP_ID": "IP_USA_UT_NAT_4",
		"Name": "Angels Landing",
		"Region": "Zion National Park",
		"Latitude": "",
		"Longitude": "",
		"Description": "",
		"Category": "NAT"
	},
	{
		"IP_ID": "IP_USA_UT_NAT_5",
		"Name": "The Narrows",
		"Region": "Zion National Park",
		"Latitude": "",
		"Longitude": "",
		"Description": "",
		"Category": "NAT"
	},
	{
		"IP_ID": "IP_USA_AZ_NAT_4",
		"Name": "Horseshoe Bend",
		"Region": "",
		"Latitude": "",
		"Longitude": "",
		"Description": "",
		"Category": "NAT"
	},
	{
		"IP_ID": "IP_USA_UT_NAT_6",
		"Name": "Lake powell",
		"Region": "",
		"Latitude": "",
		"Longitude": "",
		"Description": "",
		"Category": "NAT"
	},
	{
		"IP_ID": "IP_USA_AZ_NAT_5",
		"Name": "Monument Valley",
		"Region": "",
		"Latitude": "",
		"Longitude": "",
		"Description": "",
		"Category": "NAT"
	},
	{
		"IP_ID": "IP_USA_N/A_NAT_1",
		"Name": "Route 66",
		"Region": "",
		"Latitude": "",
		"Longitude": "",
		"Description": "",
		"Category": "NAT"
	},
	{
		"IP_ID": "IP_USA_AZ_NAT_6",
		"Name": "Antelope Canyon",
		"Region": "",
		"Latitude": "",
		"Longitude": "",
		"Description": "",
		"Category": "NAT"
	},
	{
		"IP_ID": "IP_USA_AZ_NAT_7",
		"Name": "Meteor Crater",
		"Region": "",
		"Latitude": "",
		"Longitude": "",
		"Description": "",
		"Category": "NAT"
	},
	{
		"IP_ID": "IP_USA_UT_NAT_7",
		"Name": "Delicate Arch",
		"Region": "Arches National Park",
		"Latitude": "",
		"Longitude": "",
		"Description": "",
		"Category": "NAT"
	},
	{
		"IP_ID": "IP_USA_UT_NAT_8",
		"Name": "Landscape Arch",
		"Region": "Arches National Park",
		"Latitude": "",
		"Longitude": "",
		"Description": "",
		"Category": "NAT"
	},
	{
		"IP_ID": "IP_USA_UT_NAT_9",
		"Name": "Balanced Rock",
		"Region": "Arches National Park",
		"Latitude": "",
		"Longitude": "",
		"Description": "",
		"Category": "NAT"
	},
	{
		"IP_ID": "IP_USA_UT_NAT_10",
		"Name": "Dead Horse Point State Park",
		"Region": "Canyonlands National Park",
		"Latitude": "",
		"Longitude": "",
		"Description": "",
		"Category": "NAT"
	},
	{
		"IP_ID": "IP_USA_UT_NAT_11",
		"Name": "Mesa Arch",
		"Region": "Canyonlands National Park",
		"Latitude": "",
		"Longitude": "",
		"Description": "",
		"Category": "NAT"
	},
	{
		"IP_ID": "IP_USA_UT_NAT_12",
		"Name": "Grand View Point Overlook",
		"Region": "Canyonlands National Park",
		"Latitude": "",
		"Longitude": "",
		"Description": "",
		"Category": "NAT"
	}
]
